[
    {
        "store_name": "萬華中華店",
        "company_name": "家福股份有限公司萬華中華分公司",
        "address": "108 台北市萬華區中華路二段600號B1",
        "phone": "02-77354898",
        "tax_id": "96828611",
        "hours": "24h"
    },
    {
        "store_name": "大安仁愛店",
        "company_name": "家福股份有限公司大安仁愛分公司",
        "address": "106 台北市大安區仁愛路四段151巷37號B1",
        "phone": "02-77447799",
        "tax_id": "94185070",
        "hours": null
    },
    {
        "store_name": "大直明水店",
        "company_name": "家福股份有限公司大直明水分公司",
        "address": "104 台北市中山區明水路575號B1",
        "phone": "02-77447789",
        "tax_id": "94185064",
        "hours": null
    },
    {
        "store_name": "南港店",
        "company_name": "家福股份有限公司南港二分公司",
        "address": "115 台北市南港區南港路二段146號B2",
        "phone": "02-2653-0598",
        "tax_id": "91052202",
        "hours": "24h"
    },
    {
        "store_name": "大安臨江店",
        "company_name": "家福股份有限公司大安臨江分公司",
        "address": "106 台北市大安區臨江街87號B1",
        "phone": "02-2700-8368",
        "tax_id": "54914875",
        "hours": "24h"
    },
    {
        "store_name": "內湖江南店",
        "company_name": "家福股份有限公司內湖江南分公司",
        "address": "114 台北市內湖區江南街55號",
        "phone": "02-2656-1165",
        "tax_id": "24813739",
        "hours": null
    },
    {
        "store_name": "北投明德店",
        "company_name": "家福股份有限公司北投明德分公司",
        "address": "112 台北市北投區明德路161號B1樓",
        "phone": "02-2827-8227",
        "tax_id": "24813816",
        "hours": "24h"
    },
    {
        "store_name": "內湖成功店",
        "company_name": "家福股份有限公司內湖成功分公司",
        "address": "114 台北市內湖區成功路三段174巷8號B1",
        "phone": "02-2793-1215",
        "tax_id": "51806943",
        "hours": "24h"
    },
    {
        "store_name": "台北錦州店",
        "company_name": "家福股份有限公司台北錦州分公司",
        "address": "104 台北市中山區錦州街276號",
        "phone": "02-7723-4350",
        "tax_id": "51711637",
        "hours": "24h"
    },
    {
        "store_name": "台北內湖1店",
        "company_name": "家福股份有限公司台北內湖一分公司",
        "address": "114 台北市內湖區內湖路一段155號",
        "phone": "02-2658-5955",
        "tax_id": "51550301",
        "hours": null
    },
    {
        "store_name": "士林忠誠店",
        "company_name": "家福股份有限公司士林忠誠分公司",
        "address": "111 台北市士林區忠誠路二段188號",
        "phone": "02-2875-5015",
        "tax_id": "51547806",
        "hours": "24h"
    },
    {
        "store_name": "台北濟南店",
        "company_name": "家福股份有限公司台北濟南分公司",
        "address": "100 台北市中正區濟南路2段46號B1",
        "phone": "02-2321-1262",
        "tax_id": "51528414",
        "hours": "24h"
    },
    {
        "store_name": "內湖東湖店",
        "company_name": "家福股份有限公司內湖東湖分公司",
        "address": "114 台北市內湖區東湖路69號B1",
        "phone": "02-2632-0558",
        "tax_id": "51462601",
        "hours": null
    },
    {
        "store_name": "三民店",
        "company_name": "家福股份有限公司三民分公司",
        "address": "105 台北市松山區三民路160號",
        "phone": "02-2767-0702",
        "tax_id": "80021077",
        "hours": null
    },
    {
        "store_name": "內湖店",
        "company_name": "家福股份有限公司台北內湖分公司",
        "address": "114 台北市內湖區民善街88號(民權大橋旁)",
        "phone": "02-8790-5000",
        "tax_id": "27257881",
        "hours": null
    },
    {
        "store_name": "天母中北店",
        "company_name": "家福股份有限公司天母中山分公司",
        "address": "111 台北市士林區中山北路七段113號",
        "phone": "02-2871-2126",
        "tax_id": "54379830",
        "hours": "24h"
    },
    {
        "store_name": "桂林店",
        "company_name": "家福股份有限公司台北桂林分公司",
        "address": "108 台北市萬華區桂林路1號",
        "phone": "02-2388-9887",
        "tax_id": "27946803",
        "hours": null
    },
    {
        "store_name": "重慶店",
        "company_name": "家福股份有限公司台北重慶分公司",
        "address": "103 台北市大同區重慶北路二段171號",
        "phone": "02-2553-7389",
        "tax_id": "27946819",
        "hours": null
    },
    {
        "store_name": "北投店",
        "company_name": "家福股份有限公司北投分公司",
        "address": "112 台北市北投區中和街366號B1",
        "phone": "02-2896-3000",
        "tax_id": "24306749",
        "hours": null
    },
    {
        "store_name": "天母店",
        "company_name": "家福股份有限公司台北天母分公司",
        "address": "111 台北市士林區德行西路47號",
        "phone": "02-2833-8042",
        "tax_id": "23931879",
        "hours": null
    },
    {
        "store_name": "南港成福店",
        "company_name": "統康生活事業股份有限公司成福分公司",
        "address": "115 台北市南港區成福路183號",
        "phone": "02-2788-4756、02-2788-6030",
        "tax_id": "80348030",
        "hours": null
    },
    {
        "store_name": "南港東明店",
        "company_name": "統康生活事業股份有限公司東明分公司",
        "address": "115 台北市南港區東明街99號1樓",
        "phone": "02-2785-6170、02-2785-5972",
        "tax_id": "28424486",
        "hours": null
    },
    {
        "store_name": "台北敦化北店",
        "company_name": "統康生活事業股份有限公司敦北陽分公司",
        "address": "105 台北市松山區敦化北路199巷5號",
        "phone": "(02)7753-1345",
        "tax_id": "27233431",
        "hours": "24h"
    },
    {
        "store_name": "南港舊莊店",
        "company_name": "統康生活事業股份有限公司南港分公司",
        "address": "115 台北市南港區舊莊街一段196號",
        "phone": "02-2651-2639",
        "tax_id": "89399684",
        "hours": "24h"
    },
    {
        "store_name": "士林社中店",
        "company_name": "統康生活事業股份有限公司社中分公司",
        "address": "111 台北市士林區社中街222號1樓",
        "phone": "02-8811-2281、02-8811-1567",
        "tax_id": "28427081",
        "hours": null
    },
    {
        "store_name": "士林雨聲店",
        "company_name": "統康生活事業股份有限公司雨聲分公司",
        "address": "111 台北市士林區雨聲街52號、52-1號、52巷1號",
        "phone": "02-2838-1772、02-2838-0751",
        "tax_id": "28977199",
        "hours": "24h"
    },
    {
        "store_name": "士林格致店",
        "company_name": "統康生活事業股份有限公司陽明山分公司",
        "address": "111 台北市士林區格致路7號",
        "phone": "02-2862-4435",
        "tax_id": "16087045",
        "hours": null
    },
    {
        "store_name": "士林通河店",
        "company_name": "統康生活事業股份有限公司通河分公司",
        "address": "111 台北市士林區通河街153號、155號",
        "phone": "02-2885-5937、02-2885-5938",
        "tax_id": "28983185",
        "hours": "24h"
    },
    {
        "store_name": "士林華齡店",
        "company_name": "統康生活事業股份有限公司後港分公司",
        "address": "111 台北市士林區華齡街175號",
        "phone": "02-2882-4585~6",
        "tax_id": "86385314",
        "hours": "24h"
    },
    {
        "store_name": "士林德行東店",
        "company_name": "統康生活事業股份有限公司司陽明分公司",
        "address": "111 台北市士林區德行東路230號",
        "phone": "02-2836-6280~1",
        "tax_id": "86384053",
        "hours": null
    },
    {
        "store_name": "大安和平東店",
        "company_name": "統康生活事業股份有限公司大安泰順分公司",
        "address": "106 台北市大安區和平東路一段145號",
        "phone": "02-2391-3765、02-2391-8062",
        "tax_id": "24794249",
        "hours": null
    },
    {
        "store_name": "大安敦化南店",
        "company_name": "統康生活事業股份有限公司大安敦化分公司",
        "address": "106 台北市大安區敦化南路二段48號",
        "phone": "02-77564150",
        "tax_id": "24801240",
        "hours": null
    },
    {
        "store_name": "內湖民權東店",
        "company_name": "統康生活事業股份有限公司民權分公司",
        "address": "114 台北市內湖區民權東路六段296巷42-3號地下樓",
        "phone": "02-2634-1240、02-2634-8246",
        "tax_id": "28972461",
        "hours": "24h"
    },
    {
        "store_name": "內湖成功二店",
        "company_name": "統康生活事業股份有限公司湖興分公司",
        "address": "114 台北市內湖區成功路二段320巷19號",
        "phone": "02-2796-0902~3",
        "tax_id": "86385308",
        "hours": null
    },
    {
        "store_name": "內湖康樂店",
        "company_name": "統康生活事業股份有限公司東湖三分公司",
        "address": "114 台北市內湖區康樂街150號",
        "phone": "02-2633-8537、02-2633-8437",
        "tax_id": "70761755",
        "hours": null
    },
    {
        "store_name": "文山木新店",
        "company_name": "統康生活事業股份有限公司永安分公司",
        "address": "116 台北市文山區木新路二段158-1號",
        "phone": "02-2936-2263、02-2936-2220",
        "tax_id": "80034018",
        "hours": null
    },
    {
        "store_name": "文山景隆店",
        "company_name": "統康生活事業股份有限公司景隆分公司",
        "address": "116 台北市文山區景隆街36巷2號",
        "phone": "02-2935-3394、02-2935-4421",
        "tax_id": "28990209",
        "hours": "24h"
    },
    {
        "store_name": "文山萬慶店",
        "company_name": "統康生活事業股份有限公司景美分公司",
        "address": "116 台北市文山區萬慶街27號",
        "phone": "02-2935-2362、02-2935-2367",
        "tax_id": "84306568",
        "hours": null
    },
    {
        "store_name": "北投公館店",
        "company_name": "統康生活事業股份有限公司清江分公司",
        "address": "112 台北市北投區公館路198號",
        "phone": "02-2893-1276",
        "tax_id": "97161608",
        "hours": "24h"
    },
    {
        "store_name": "北投光明店",
        "company_name": "統康生活事業股份有限公司北投分公司",
        "address": "112 台北市北投區光明路220號1F",
        "phone": "02-2896-8712~3",
        "tax_id": "86386165",
        "hours": "24h"
    },
    {
        "store_name": "北投致遠一店",
        "company_name": "統康生活事業股份有限公司致遠分公司",
        "address": "112 台北市北投區致遠一路二段19號、21號、23號",
        "phone": "02-2827-4150、02-2827-4159",
        "tax_id": "28971250",
        "hours": "24h"
    },
    {
        "store_name": "台北八德店",
        "company_name": "統康生活事業股份有限公司八德分公司",
        "address": "105 台北市松山區八德路四段83號",
        "phone": "02-2742-3398、02-2742-3397",
        "tax_id": "70803220",
        "hours": "24h"
    },
    {
        "store_name": "台北大理店",
        "company_name": "統康生活事業股份有限公司萬華分公司",
        "address": "108 台北市萬華區大理街114號1樓",
        "phone": "02-2304-2343、02-2304-2353",
        "tax_id": "28427701",
        "hours": "24h"
    },
    {
        "store_name": "台北中坡南店",
        "company_name": "統康生活事業股份有限公司中坡陽分公司",
        "address": "115 台北市南港區中坡南路3號",
        "phone": "02-2785-4579、02-2785-4725",
        "tax_id": "80355432",
        "hours": null
    },
    {
        "store_name": "台北仁愛二店",
        "company_name": "統康生活事業股份有限公司仁愛青分公司",
        "address": "106 台北市大安區仁愛路四段388號B1",
        "phone": "02-77564050",
        "tax_id": "27232741",
        "hours": null
    },
    {
        "store_name": "台北仁愛店",
        "company_name": "統康生活事業股份有限公司仁愛門市",
        "address": "106 台北市大安區仁愛路四段50-99,50-100號B1",
        "phone": "02-77564170",
        "tax_id": "29232401",
        "hours": null
    },
    {
        "store_name": "台北太原店",
        "company_name": "統康生活事業股份有限公司太原分公司",
        "address": "103 台北市大同區太原路155、157號",
        "phone": "02-2558-4038、02-2558-6525",
        "tax_id": "53658335",
        "hours": null
    },
    {
        "store_name": "台北木柵店",
        "company_name": "統康生活事業股份有限公司木柵分公司",
        "address": "116 台北市文山區木柵路四段153號",
        "phone": "02-2239-6401、02-2239-6404",
        "tax_id": "16745907",
        "hours": "24h"
    },
    {
        "store_name": "台北北安店",
        "company_name": "統康生活事業股份有限公司大直分公司",
        "address": "104 台北市中山區北安路595巷11-13號",
        "phone": "02-2533-7796~7",
        "tax_id": "23932075",
        "hours": null
    },
    {
        "store_name": "台北四維店",
        "company_name": "統康生活事業股份有限公司成功一分公司",
        "address": "106 台北市大安區四維路198巷35號",
        "phone": "02-77564140",
        "tax_id": "96975177",
        "hours": null
    },
    {
        "store_name": "台北光復店",
        "company_name": "統康生活事業股份有限公司松山光復分公司",
        "address": "105 台北市松山區光復北路198號",
        "phone": "02-2546-9080",
        "tax_id": "54397561",
        "hours": "24h"
    },
    {
        "store_name": "台北同安店",
        "company_name": "家福股份有限公司台北同安分公司",
        "address": "100 台北市中正區同安街71號",
        "phone": "02-2365-1672",
        "tax_id": "80022553",
        "hours": "24h"
    },
    {
        "store_name": "台北西藏店",
        "company_name": "家福股份有限公司台北西藏分公司",
        "address": "108 台北市萬華區西藏路125巷13-15號",
        "phone": "02-2332-6726",
        "tax_id": "11364230",
        "hours": null
    },
    {
        "store_name": "台北延吉店",
        "company_name": "統康生活事業股份有限公司通化分公司",
        "address": "106 台北市大安區延吉街250號B1",
        "phone": "02-2704-8933",
        "tax_id": "84311979",
        "hours": null
    },
    {
        "store_name": "台北延壽店",
        "company_name": "統康生活事業股份有限公司延壽分公司",
        "address": "105 台北市松山區延壽街91號、93號",
        "phone": "02-2745-7060、02-2745-7065",
        "tax_id": "28992190",
        "hours": "24h"
    },
    {
        "store_name": "台北忠孝東二店",
        "company_name": "統康生活事業股份有限公司正義陽分公司",
        "address": "106 台北市大安區忠孝東路三段218號B1",
        "phone": "02-2777-1516、02-2777-1517",
        "tax_id": "80353997",
        "hours": "24h"
    },
    {
        "store_name": "台北忠孝東店",
        "company_name": "統康生活事業股份有限公司忠孝分公司",
        "address": "106 台北市大安區忠孝東路四段71號B1",
        "phone": "02-2781-1008、02-2778-1336",
        "tax_id": "86384069",
        "hours": "24h"
    },
    {
        "store_name": "台北松仁店",
        "company_name": "統康生活事業股份有限公司吳興分公司",
        "address": "110 台北市信義區松仁路271號B1",
        "phone": "02-2720-7494",
        "tax_id": "96970497",
        "hours": null
    },
    {
        "store_name": "台北松德店",
        "company_name": "統康生活事業股份有限公司松德分公司",
        "address": "110 台北市信義區松德路99號B1",
        "phone": "02-2346-3665",
        "tax_id": "70758885",
        "hours": "24h"
    },
    {
        "store_name": "台北林森北店",
        "company_name": "統康生活事業股份有限公司東光分公司",
        "address": "104 台北市中山區林森北路413號B1",
        "phone": "02-2525-3663、02-2525-3664",
        "tax_id": "70788494",
        "hours": null
    },
    {
        "store_name": "台北長安東店",
        "company_name": "統康生活事業股份有限公司長安東分公司",
        "address": "104 台北市中山區長安東路二段63、63-1、63-2號",
        "phone": "02-2507-1687、02-2507-9903",
        "tax_id": "28978541",
        "hours": "24h"
    },
    {
        "store_name": "台北長沙店",
        "company_name": "統康生活事業股份有限公司長沙分公司",
        "address": "108 台北市萬華區長沙街二段93號B1",
        "phone": "02-2370-6201~2",
        "tax_id": "70745989",
        "hours": "24h"
    },
    {
        "store_name": "台北信義店",
        "company_name": "統康生活事業股份有限公司通化陽分公司",
        "address": "106 台北市大安區信義路四段296號B1",
        "phone": "02-2754-5386~7",
        "tax_id": "80354601",
        "hours": null
    },
    {
        "store_name": "台北重慶北店",
        "company_name": "統康生活事業股份有限公司建成分公司",
        "address": "103 台北市大同區重慶北路一段73號B1",
        "phone": "02-2555-9081~2",
        "tax_id": "23931569",
        "hours": "24h"
    },
    {
        "store_name": "台北師大店",
        "company_name": "統康生活事業股份有限公司師大分公司",
        "address": "106 台北市大安區師大路129號1樓",
        "phone": "02-2368-0031~2",
        "tax_id": "23932716",
        "hours": "24h"
    },
    {
        "store_name": "台北酒泉店",
        "company_name": "統康生活事業股份有限公司酒泉分公司",
        "address": "103 台北市大同區酒泉街105號",
        "phone": "02-2593-3600、02-2593-3033",
        "tax_id": "23225213",
        "hours": null
    },
    {
        "store_name": "台北新生南店",
        "company_name": "統康生活事業股份有限公司新生分公司",
        "address": "106 台北市大安區新生南路三段2號B1",
        "phone": "02-2368-6191、02-2368-6195",
        "tax_id": "80343730",
        "hours": null
    },
    {
        "store_name": "台北萬大店",
        "company_name": "統康生活事業股份有限公司司寶興分公司",
        "address": "108 台北市萬華區萬大路486巷48號1樓",
        "phone": "02-2303-8018、02-2303-6980",
        "tax_id": "28435907",
        "hours": "24h"
    },
    {
        "store_name": "台北農安二店",
        "company_name": "統康生活事業股份有限公司農安二分公司",
        "address": "104 台北市中山區農安街26號、26-1號",
        "phone": "02-2599-2851、02-2599-1650",
        "tax_id": "28988576",
        "hours": null
    },
    {
        "store_name": "台北農安店",
        "company_name": "統康生活事業股份有限公司農安分公司",
        "address": "104 台北市中山區農安街257、259號",
        "phone": "02-2504-7952、02-2504-7942",
        "tax_id": "28982572",
        "hours": null
    },
    {
        "store_name": "台北羅斯福店",
        "company_name": "統康生活事業股份有限公司羅斯福分公司",
        "address": "106 台北市大安區羅斯福路三段285號B1",
        "phone": "02-2363-1410",
        "tax_id": "86384096",
        "hours": null
    }
]