[
  {
    "name": "大直敬業",
    "district": "中山區",
    "code": "10466",
    "address": "臺北市中山區敬業四路33號B1",
    "hours": "08:00 – 19:00",
    "phone": "02-25328000",
    "services": [
      "生鮮蔬果",
      "全聯阪急麵包",
      "COFFEE",
      "寶可夢卡牌",
      "熱便當",
      "壽司",
      "花卉"
    ]
  },
  {
    "name": "中正華山",
    "district": "中正區",
    "code": "10050",
    "address": "臺北市中正區忠孝東路１段86號",
    "hours": "08:00 – 23:00",
    "phone": "02-23213695",
    "services": [
      "生鮮蔬果",
      "全聯阪急麵包",
      "COFFEE",
      "停車場",
      "寶可夢卡牌",
      "熱便當",
      "壽司",
      "花卉",
      "快篩試劑"
    ]
  },
  {
    "name": "信義黎忠",
    "district": "信義區",
    "code": "11057",
    "address": "臺北市信義區和平東路３段391巷16號",
    "hours": "08:00 – 23:00",
    "phone": "02-87326787",
    "services": [
      "生鮮蔬果",
      "全聯阪急麵包",
      "COFFEE",
      "停車場",
      "寶可夢卡牌",
      "熱便當",
      "冷凍甜點",
      "壽司",
      "花卉",
      "小農直採",
      "快篩試劑"
    ]
  },
  {
    "name": "大直實踐",
    "district": "中山區",
    "code": "10464",
    "address": "臺北市中山區北安路655號B1",
    "hours": "08:00 – 23:00",
    "phone": "02-25323102",
    "services": [
      "生鮮蔬果",
      "全聯阪急麵包",
      "寶可夢卡牌",
      "熱便當",
      "快篩試劑"
    ]
  },
  {
    "name": "松山吉祥",
    "district": "松山區",
    "code": "10560",
    "address": "臺北市松山區光復北路11巷99號B1",
    "hours": "08:00 – 23:00",
    "phone": "02-27460037",
    "services": [
      "生鮮蔬果",
      "全聯阪急麵包",
      "COFFEE",
      "停車場",
      "寶可夢卡牌",
      "花卉",
      "零錢機",
      "快篩試劑"
    ]
  },
  {
    "name": "中正延平",
    "district": "中正區",
    "code": "10065",
    "address": "臺北市中正區延平南路189號",
    "hours": "08:00 – 23:00",
    "phone": "02-23885895",
    "services": [
      "生鮮蔬果",
      "全聯阪急麵包",
      "COFFEE",
      "停車場",
      "寶可夢卡牌",
      "熱便當",
      "壽司",
      "花卉",
      "小農直採",
      "快篩試劑"
    ]
  },
  {
    "name": "中山林森",
    "district": "中山區",
    "code": "10453",
    "address": "臺北市中山區林森北路561號",
    "hours": "08:30 – 23:30",
    "phone": "02-25973152",
    "services": [
      "生鮮蔬果",
      "全聯阪急麵包",
      "COFFEE",
      "停車場",
      "寶可夢卡牌",
      "快篩試劑"
    ]
  },
  {
    "name": "大安芳和",
    "district": "大安區",
    "code": "10675",
    "address": "臺北市大安區樂業街87號1樓、B1",
    "hours": "07:30 – 22:30",
    "phone": "02-23770832",
    "services": [
      "生鮮蔬果",
      "全聯阪急麵包",
      "COFFEE",
      "寶可夢卡牌",
      "熱便當",
      "花卉",
      "快篩試劑"
    ]
  },
  {
    "name": "松山興安",
    "district": "松山區",
    "code": "10596",
    "address": "臺北市松山區民生東路３段130巷9號",
    "hours": "08:00 – 23:00",
    "phone": "02-27172031",
    "services": [
      "生鮮蔬果",
      "全聯阪急麵包",
      "COFFEE",
      "寶可夢卡牌",
      "熱便當",
      "壽司",
      "花卉",
      "小農直採",
      "零錢機",
      "快篩試劑"
    ]
  },
  {
    "name": "萬華萬大",
    "district": "萬華區",
    "code": "10869",
    "address": "臺北市萬華區萬大路406號1樓、B1",
    "hours": "08:00 – 23:00",
    "phone": "02-23032790",
    "services": [
      "生鮮蔬果",
      "全聯阪急麵包",
      "COFFEE",
      "寶可夢卡牌",
      "零錢機",
      "快篩試劑"
    ]
  },
  {
    "name": "信義嘉興",
    "district": "信義區",
    "code": "11052",
    "address": "臺北市信義區基隆路２段22號B1",
    "hours": "07:30 – 22:30",
    "phone": "02-27221523",
    "services": [
      "生鮮蔬果",
      "全聯阪急麵包",
      "COFFEE",
      "寶可夢卡牌",
      "熱便當",
      "零錢機",
      "快篩試劑"
    ]
  },
  {
    "name": "大同民族西",
    "district": "大同區",
    "code": "10374",
    "address": "臺北市大同區民族西路235號",
    "hours": "08:00 – 23:00",
    "phone": "02-25853572",
    "services": [
      "生鮮蔬果",
      "全聯阪急麵包",
      "停車場",
      "寶可夢卡牌",
      "快篩試劑"
    ]
  },
  {
    "name": "萬華民和",
    "district": "萬華區",
    "code": "10863",
    "address": "臺北市萬華區民和街103號",
    "hours": "07:30 – 22:00",
    "phone": "02-23077172",
    "services": [
      "生鮮蔬果",
      "全聯阪急麵包",
      "COFFEE",
      "停車場",
      "寶可夢卡牌",
      "快篩試劑"
    ]
  },
  {
    "name": "大同民生西",
    "district": "大同區",
    "code": "10345",
    "address": "臺北市大同區民生西路280號1樓",
    "hours": "08:00 – 23:00",
    "phone": "02-25550771",
    "services": [
      "生鮮蔬果",
      "全聯阪急麵包",
      "寶可夢卡牌",
      "快篩試劑"
    ]
  },
  {
    "name": "大直北安",
    "district": "中山區",
    "code": "10404",
    "address": "臺北市中山區北安路588巷8號",
    "hours": "08:00 – 23:00",
    "phone": "02-85096500",
    "services": [
      "生鮮蔬果",
      "全聯阪急麵包",
      "COFFEE",
      "停車場",
      "寶可夢卡牌",
      "熱便當",
      "小農直採"
    ]
  },
  {
    "name": "萬華西藏",
    "district": "萬華區",
    "code": "10879",
    "address": "臺北市萬華區西藏路125巷9號",
    "hours": "08:00 – 23:00",
    "phone": "02-23078262",
    "services": [
      "生鮮蔬果",
      "全聯阪急麵包",
      "COFFEE",
      "寶可夢卡牌",
      "熱便當",
      "壽司",
      "小農直採"
    ]
  },
  {
    "name": "信義六合",
    "district": "信義區",
    "code": "11046",
    "address": "臺北市信義區松仁路240巷19號",
    "hours": "08:00 – 23:00",
    "phone": "02-27201907",
    "services": [
      "生鮮蔬果",
      "全聯阪急麵包",
      "COFFEE",
      "停車場",
      "寶可夢卡牌",
      "熱便當",
      "壽司",
      "花卉",
      "小農直採",
      "快篩試劑"
    ]
  },
  {
    "name": "中正南昌",
    "district": "中正區",
    "code": "10074",
    "address": "臺北市中正區南昌路１段51巷1號",
    "hours": "08:00 – 23:00",
    "phone": "02-23931505",
    "services": [
      "生鮮蔬果",
      "全聯阪急麵包",
      "COFFEE",
      "寶可夢卡牌",
      "熱便當",
      "小農直採",
      "快篩試劑"
    ]
  },
  {
    "name": "中山朱崙",
    "district": "中山區",
    "code": "10492",
    "address": "臺北市中山區龍江路15號1.2樓",
    "hours": "07:30 – 22:30",
    "phone": "...",
    "services": []
  }
]